City_ID,City,Country,Lat,Lng,Max Temp,Humidity,Cloudiness,Wind Speed,Description
0,Busselton,AU,-33.65,115.3333,60.73,69,0,18.48,clear sky
1,Albany,US,42.6001,-73.9662,29.68,62,84,3.0,broken clouds
2,Cabo San Lucas,MX,22.8909,-109.9124,71.51,64,75,3.44,broken clouds
3,Bubaque,GW,11.2833,-15.8333,79.75,43,7,8.05,clear sky
4,Provideniya,RU,64.3833,-173.3,19.76,98,100,1.14,overcast clouds
5,Roma,US,43.2128,-75.4557,23.72,74,100,9.22,overcast clouds
6,Bethel,US,41.3712,-73.414,38.19,66,75,9.22,broken clouds
7,Coquimbo,CL,-29.9533,-71.3436,71.33,64,20,9.22,few clouds
8,Carballo,ES,43.213,-8.691,57.06,75,25,6.35,scattered clouds
9,Torbay,CA,47.6666,-52.7314,33.89,92,100,9.22,overcast clouds
10,Dyurtyuli,RU,55.4911,54.8688,23.88,86,100,14.41,overcast clouds
11,Rikitea,PF,-23.1203,-134.9692,78.44,74,24,11.65,light rain
12,Esterhazy,CA,50.65,-102.0843,-4.95,98,47,6.04,scattered clouds
13,Sao Joao Da Barra,BR,-21.6403,-41.0511,87.89,76,89,16.84,overcast clouds
14,Biak,ID,-0.9131,122.8766,76.24,86,82,5.46,broken clouds
15,Whitefish,US,48.4111,-114.3376,10.15,85,100,0.0,mist
16,Barrow,US,71.2906,-156.7887,-9.38,77,0,24.16,clear sky
17,Castro,BR,-24.7911,-50.0119,74.26,74,100,8.52,moderate rain
18,Ibra,OM,22.6906,58.5334,67.28,42,0,12.91,clear sky
19,Srednekolymsk,RU,67.45,153.6833,-10.82,97,95,9.26,overcast clouds
20,Nikolskoye,RU,59.7035,30.7861,31.91,86,99,9.64,overcast clouds
21,Faanui,PF,-16.4833,-151.75,79.75,78,53,12.33,moderate rain
22,Tiksi,RU,71.6872,128.8694,-9.35,100,100,11.79,snow
23,Vitim,RU,59.4511,112.5578,2.55,96,100,8.08,light snow
24,Manggar,ID,-2.8833,108.2667,78.8,85,89,9.31,overcast clouds
25,Hilo,US,19.7297,-155.09,69.24,92,20,3.44,few clouds
26,Kafue,ZM,-15.7691,28.1814,72.68,88,95,5.19,light rain
27,Tuktoyaktuk,CA,69.4541,-133.0374,-34.6,67,0,4.61,clear sky
28,Vaini,TO,-21.2,-175.2,78.96,94,20,11.5,light rain
29,Punta Arenas,CL,-53.15,-70.9167,57.31,54,75,27.63,broken clouds
30,Kodiak,US,57.79,-152.4072,38.71,93,100,4.61,light rain
31,Vardo,NO,70.3705,31.1107,33.78,80,100,19.57,light snow
32,Tazovskiy,RU,67.4667,78.7,-17.07,100,26,6.04,scattered clouds
33,Weiser,US,44.251,-116.9693,19.6,71,100,2.77,overcast clouds
34,Maiduguri,NG,11.8464,13.1603,92.84,10,61,13.09,broken clouds
35,Ahipara,NZ,-35.1667,173.1667,66.24,96,82,5.55,broken clouds
36,Puerto Ayora,EC,-0.7393,-90.3518,84.16,90,86,4.0,light rain
37,Ushuaia,AR,-54.8,-68.3,55.06,58,75,13.8,broken clouds
38,Broome,US,42.2506,-75.833,28.02,65,75,9.22,broken clouds
39,Mahebourg,MU,-20.4081,57.7,79.09,94,40,4.61,light rain
40,Port Elizabeth,ZA,-33.918,25.5701,75.49,89,20,20.71,few clouds
41,Yar-Sale,RU,66.8333,70.8333,4.19,92,98,11.83,overcast clouds
42,Aitape,PG,-3.1374,142.3475,77.77,89,98,2.66,overcast clouds
43,Hithadhoo,MV,-0.6,73.0833,81.23,76,98,13.47,overcast clouds
44,Dikson,RU,73.5069,80.5464,-1.44,90,100,9.4,overcast clouds
45,Morondava,MG,-20.2833,44.2833,81.75,80,40,9.75,scattered clouds
46,Coihaique,CL,-45.5752,-72.0662,66.15,34,0,3.44,clear sky
47,Korla,CN,41.7597,86.1469,20.95,81,100,4.9,overcast clouds
48,Bengkulu,ID,-3.8004,102.2655,76.64,91,100,5.21,overcast clouds
49,Mataura,NZ,-46.1927,168.8643,59.97,100,100,1.79,overcast clouds
50,Banda Aceh,ID,5.5577,95.3222,78.24,83,100,4.16,moderate rain
51,Qaanaaq,GL,77.484,-69.3632,-5.67,44,70,7.52,broken clouds
52,Shambu,ET,9.5667,37.1,64.4,29,64,1.25,broken clouds
53,Price,US,39.5994,-110.8107,13.26,40,0,0.0,clear sky
54,Qunduz,AF,36.729,68.857,48.24,66,100,2.51,overcast clouds
55,Jamestown,US,42.097,-79.2353,19.54,71,100,10.36,overcast clouds
56,Hermanus,ZA,-34.4187,19.2345,78.8,62,0,17.67,clear sky
57,Thinadhoo,MV,0.5333,72.9333,81.37,74,8,10.42,clear sky
58,Quatre Cocos,MU,-20.2078,57.7625,78.91,81,100,6.69,light rain
59,Upernavik,GL,72.7868,-56.1549,2.93,94,100,9.66,overcast clouds
60,Khairpur Nathan Shah,PK,27.0936,67.7337,60.17,30,0,3.22,clear sky
61,Naze,JP,28.3667,129.4833,47.32,63,9,5.7,clear sky
62,Ilulissat,GL,69.2167,-51.1,10.42,79,75,20.71,light snow
63,Lhokseumawe,ID,5.1801,97.1507,76.57,89,97,4.12,overcast clouds
64,Thompson,CA,55.7435,-97.8558,-29.81,93,6,4.61,clear sky
65,Haines Junction,CA,60.7522,-137.5108,16.93,97,99,0.29,light snow
66,East London,ZA,-33.0153,27.9116,74.34,88,100,16.11,light rain
67,Sydney Mines,CA,46.2367,-60.2177,30.25,90,100,6.91,snow
68,Gat,IL,31.61,34.7642,57.88,100,47,10.56,scattered clouds
69,Cape Town,ZA,-33.9258,18.4232,74.91,56,0,14.97,clear sky
70,Khatanga,RU,71.9667,102.5,-42.93,100,70,5.44,broken clouds
71,Atuona,PF,-9.8,-139.0333,78.93,78,100,25.81,overcast clouds
72,Rawson,AR,-43.3002,-65.1023,65.71,41,0,14.0,clear sky
73,Cidreira,BR,-30.1811,-50.2056,83.3,61,12,10.09,few clouds
74,Monte Patria,CL,-30.6919,-70.9467,81.25,45,84,7.58,broken clouds
75,Saint-Philippe,RE,-21.3585,55.7679,81.99,80,100,8.43,overcast clouds
76,Salalah,OM,17.0151,54.0924,75.29,60,75,4.61,broken clouds
77,Georgetown,MY,5.4112,100.3354,83.95,76,20,4.61,few clouds
78,Pangani,TZ,-5.4333,38.9667,78.24,79,15,9.95,few clouds
79,Chuy,UY,-33.6971,-53.4616,84.04,54,9,11.59,clear sky
80,Port Lincoln,AU,-34.7333,135.8667,63.41,63,97,10.92,overcast clouds
81,Fortuna,US,40.5982,-124.1573,36.36,74,0,10.36,clear sky
82,Tungor,RU,53.3808,142.9564,-15.68,93,42,7.7,scattered clouds
83,Arraial Do Cabo,BR,-22.9661,-42.0278,89.56,51,0,23.02,clear sky
84,Maymyo,MM,22.0333,96.4667,61.43,54,0,0.67,clear sky
85,Chara,RU,56.9064,118.2631,-10.3,73,88,4.29,overcast clouds
86,Yeppoon,AU,-23.1333,150.7333,78.58,85,83,10.36,broken clouds
87,Karratha,AU,-20.7377,116.8463,87.4,63,9,11.95,clear sky
88,Severo-Kurilsk,RU,50.6789,156.125,21.04,65,55,7.99,broken clouds
89,Nishihara,JP,26.1842,127.7558,61.88,67,75,4.61,broken clouds
90,Sabha,LY,27.0377,14.4283,58.3,21,0,6.71,clear sky
91,Skjervoy,NO,70.0311,20.9714,32.0,60,100,10.27,light snow
92,Saint George,US,37.1041,-113.5841,29.43,48,0,4.61,clear sky
93,Aklavik,CA,68.2191,-135.0107,-32.13,100,56,1.45,broken clouds
94,Batagay-Alyta,RU,67.8006,130.4114,-12.01,99,100,2.44,overcast clouds
95,Port Alfred,ZA,-33.5906,26.891,74.17,89,47,8.99,scattered clouds
96,Bredasdorp,ZA,-34.5322,20.0403,74.46,68,0,15.32,clear sky
97,Carnarvon,AU,-24.8667,113.6333,76.24,82,0,18.86,clear sky
98,Sechura,PE,-5.5569,-80.8222,80.76,58,93,1.5,overcast clouds
99,Komsomolskiy,UZ,40.4272,71.7189,32.72,69,99,0.0,mist
100,Preetz,DE,54.2333,10.2833,45.07,84,75,26.46,light rain
101,Hobart,AU,-42.8794,147.3294,57.25,89,75,0.0,broken clouds
102,Lorengau,PG,-2.0226,147.2712,80.64,77,100,5.23,overcast clouds
103,Varna,BG,43.2167,27.9167,35.74,92,75,9.22,broken clouds
104,Yellowknife,CA,62.456,-114.3525,-33.45,74,20,9.22,few clouds
105,Chokurdakh,RU,70.6333,147.9167,5.9,97,98,4.43,overcast clouds
106,Oudtshoorn,ZA,-33.5907,22.2014,71.96,36,24,13.56,few clouds
107,Iqaluit,CA,63.7506,-68.5145,-16.87,69,100,21.85,light snow
108,Necochea,AR,-38.5473,-58.7368,80.82,58,39,14.07,scattered clouds
109,Poum,NC,-20.2333,164.0167,77.43,76,25,4.88,scattered clouds
110,Mandalgovi,MN,45.7625,106.2708,3.4,67,4,3.15,clear sky
111,Madarounfa,NE,13.3087,7.156,95.38,8,60,8.55,broken clouds
112,Chernyshevskiy,RU,63.0128,112.4714,-39.53,100,77,2.44,broken clouds
113,Seoul,KR,37.5683,126.9778,43.99,93,75,5.75,fog
114,Alibag,IN,18.6411,72.8792,80.67,75,15,10.22,few clouds
115,New Norfolk,AU,-42.7826,147.0587,56.91,91,50,2.75,scattered clouds
116,Bilokurakyne,UA,49.5341,38.7307,28.62,99,90,3.51,overcast clouds
117,Arsikere,IN,13.3139,76.2561,75.51,44,100,11.41,light rain
118,Butaritari,KI,3.0707,172.7902,80.2,78,74,19.26,light rain
119,Mount Gambier,AU,-37.8333,140.7667,60.08,69,92,5.28,overcast clouds
120,Gorontalo,ID,0.5412,123.0595,74.39,96,84,3.91,broken clouds
121,Souillac,MU,-20.5167,57.5167,79.18,94,40,4.61,light rain
122,Clyde River,CA,70.4692,-68.5914,-16.37,76,100,6.91,heavy snow
123,Beringovskiy,RU,63.05,179.3167,27.59,95,98,14.56,light snow
124,Esperance,AU,-33.8667,121.9,62.55,73,100,16.13,overcast clouds
125,Waingapu,ID,-9.6567,120.2641,80.02,81,100,5.61,overcast clouds
126,Dunedin,NZ,-45.8742,170.5036,63.81,99,100,3.0,overcast clouds
127,Lebu,CL,-37.6167,-73.65,61.14,61,1,19.04,clear sky
128,Bolobo,CD,-2.1667,16.2333,87.46,48,78,3.04,broken clouds
129,Pingliang,CN,35.5392,106.6861,31.01,25,92,6.82,overcast clouds
130,Kavieng,PG,-2.5744,150.7967,81.93,72,100,5.12,overcast clouds
131,Itarema,BR,-2.9248,-39.9167,85.55,61,92,14.41,overcast clouds
132,Mabaruma,GY,8.2,-59.7833,84.43,47,33,5.46,scattered clouds
133,Florence,IT,43.7667,11.25,55.67,52,0,4.61,clear sky
134,Kapaa,US,22.0752,-159.319,70.12,94,100,6.91,moderate rain
135,Puri,IN,19.8,85.85,75.72,65,79,7.0,broken clouds
136,Bara,NG,10.3744,10.7288,98.64,8,6,10.33,clear sky
137,Port-Cartier,CA,50.0334,-66.8654,5.76,77,100,3.71,overcast clouds
138,Bom Jesus,BR,-9.0744,-44.3586,97.54,28,2,4.38,clear sky
139,Plettenberg Bay,ZA,-34.0527,23.3716,72.55,77,33,8.32,scattered clouds
140,Tasiilaq,GL,65.6145,-37.6368,10.56,86,100,6.15,overcast clouds
141,Labuan,MY,5.2767,115.2417,77.36,100,20,2.3,light rain
142,Tebingtinggi,ID,3.3285,99.1625,74.14,96,100,3.04,overcast clouds
143,Kollegal,IN,12.15,77.1167,72.52,54,92,5.19,overcast clouds
144,Yamada,JP,39.4667,141.95,29.64,72,100,6.8,overcast clouds
145,Luderitz,NA,-26.6481,15.1594,68.83,66,3,12.59,clear sky
146,San Vicente,AR,-26.6167,-54.1333,74.1,89,72,4.45,broken clouds
147,Lagoa,PT,39.05,-27.9833,57.18,63,50,14.45,scattered clouds
148,Asau,RO,46.4333,26.4,34.72,96,96,3.44,overcast clouds
149,Turinsk,RU,58.0458,63.696,20.77,90,61,8.23,broken clouds
150,Zlitan,LY,32.4674,14.5687,58.87,58,67,24.9,broken clouds
151,Santa Cruz Cabralia,BR,-16.2781,-39.0247,80.83,74,75,12.66,broken clouds
152,Bluff,NZ,-46.6,168.3333,59.72,97,100,5.57,overcast clouds
153,Belle Fourche,US,44.6714,-103.8522,25.34,45,0,10.54,clear sky
154,Taywarah,AF,33.35,64.4167,17.51,91,15,6.53,few clouds
155,Kismayo,SO,-0.3582,42.5454,77.34,82,0,15.88,clear sky
156,Mount Hagen,PG,-5.8581,144.2274,59.83,98,100,1.74,overcast clouds
157,Hirara,JP,24.8,125.2833,68.13,63,0,14.58,clear sky
158,Yulara,AU,-25.2406,130.9889,80.74,28,96,14.7,overcast clouds
159,Husavik,IS,66.0449,-17.3389,28.2,97,100,9.24,snow
160,Chumikan,RU,54.7183,135.315,-12.28,87,17,21.18,few clouds
161,Japura,ID,-0.3167,102.35,73.47,98,100,2.24,overcast clouds
162,La Ronge,CA,55.1001,-105.2842,-21.75,63,40,1.14,scattered clouds
163,Ponta Delgada,PT,37.7333,-25.6667,59.72,67,40,16.11,scattered clouds
164,Bukachacha,RU,52.9833,116.9167,-12.5,91,8,4.43,clear sky
165,Kamaishi,JP,39.2667,141.8833,30.42,70,100,6.62,overcast clouds
166,Sistranda,NO,63.7256,8.834,31.96,69,100,10.09,overcast clouds
167,Kahului,US,20.8947,-156.47,74.84,87,0,10.36,light rain
168,Meulaboh,ID,4.1363,96.1285,76.14,88,100,1.23,light rain
169,Changji,CN,44.0167,87.3167,9.39,85,40,2.24,mist
170,Ocampo,MX,21.65,-101.5,59.95,46,0,3.31,clear sky
171,Los Llanos De Aridane,ES,28.6585,-17.9182,62.35,71,40,10.36,scattered clouds
172,Dingle,PH,10.9995,122.6711,74.44,95,70,8.9,broken clouds
173,Antropovo,RU,58.3988,43.0066,27.52,91,100,12.48,overcast clouds
174,Evensk,RU,61.95,159.2333,17.76,95,100,7.07,light snow
175,Camacha,PT,33.0833,-16.3333,56.62,58,40,14.97,scattered clouds
176,Bambous Virieux,MU,-20.3428,57.7575,79.05,94,40,4.61,light rain
177,Bilibino,RU,68.0546,166.4372,3.33,94,27,8.55,scattered clouds
178,Touros,BR,-5.1989,-35.4608,86.22,62,100,16.37,overcast clouds
179,Skogn,NO,63.7,11.2,27.79,88,100,3.62,overcast clouds
180,Onega,RU,63.9061,38.1404,29.14,92,100,13.87,light snow
181,Guarapari,BR,-20.6667,-40.4975,84.88,70,43,16.26,scattered clouds
182,Manokwari,ID,-0.8667,134.0833,77.99,81,93,4.23,overcast clouds
183,Port Pirie,AU,-33.1833,138.0167,65.35,71,24,8.93,few clouds
184,Morden,CA,49.1919,-98.1014,-7.74,71,76,4.61,broken clouds
185,Pangnirtung,CA,66.1451,-65.7125,-31.0,68,20,2.3,few clouds
186,Suntar,RU,62.1444,117.6319,-22.54,100,98,2.19,overcast clouds
187,Victoria,HK,22.2855,114.1577,66.38,73,98,11.01,overcast clouds
188,Zhanakorgan,KZ,43.9098,67.2495,34.11,86,46,6.8,scattered clouds
189,Moratuwa,LK,6.773,79.8816,76.86,84,100,12.53,light rain
190,Tongzi,CN,28.7829,105.0877,54.18,53,0,1.81,clear sky
191,Ostrovnoy,RU,68.0531,39.5131,29.08,95,100,7.92,overcast clouds
192,Saldanha,ZA,-33.0117,17.9442,78.85,78,38,13.53,scattered clouds
193,Port Hawkesbury,CA,45.6169,-61.3485,29.79,94,100,4.61,snow
194,Barabash,RU,43.2,131.4833,15.06,94,99,2.98,light snow
195,Katsuura,JP,35.1333,140.3,41.31,64,98,5.97,overcast clouds
196,North Canton,US,40.8759,-81.4023,21.65,67,40,4.61,scattered clouds
197,Yumen,CN,40.2833,97.2,21.63,35,96,4.18,overcast clouds
198,Ponta Do Sol,PT,32.6667,-17.1,62.71,70,55,7.07,light rain
199,Havelock,US,34.8791,-76.9013,58.95,79,100,0.0,overcast clouds
200,Tooele,US,40.5308,-112.2983,12.24,52,0,8.05,clear sky
201,Nuuk,GL,64.1835,-51.7216,11.01,72,75,17.27,light snow
202,Honningsvag,NO,70.9821,25.9704,37.15,81,75,17.27,broken clouds
203,Dzhebariki-Khaya,RU,62.2167,135.8,-30.51,98,100,2.98,overcast clouds
204,Norman Wells,CA,65.282,-126.8329,-12.96,77,75,11.5,light snow
205,Cayenne,GF,4.9333,-52.3333,82.44,74,75,4.61,broken clouds
206,Sao Filipe,CV,14.8961,-24.4956,72.19,68,45,7.7,scattered clouds
207,Baijiantan,CN,45.6333,85.1833,3.16,87,100,1.23,overcast clouds
208,Atkinson,US,42.8384,-71.147,36.45,63,75,12.66,broken clouds
209,Mingshui,CN,36.7167,117.5,40.06,39,95,7.45,overcast clouds
210,Zhongxing,CN,33.7039,118.6792,46.45,44,62,4.72,broken clouds
211,Baghdad,IQ,33.3406,44.4009,53.51,87,3,5.75,clear sky
212,Linguere,SN,15.3953,-15.1193,92.61,7,3,5.82,clear sky
213,Burns Lake,CA,54.2331,-125.7533,11.62,98,100,1.72,overcast clouds
214,Chagoda,RU,59.164,35.3285,28.29,92,97,10.16,overcast clouds
215,Lavrentiya,RU,65.5833,-171.0,24.75,97,100,2.33,overcast clouds
216,Kaitangata,NZ,-46.2817,169.8464,60.53,98,99,1.36,overcast clouds
217,Pevek,RU,69.7008,170.3133,12.33,80,11,10.04,few clouds
218,Sarangani,PH,5.4033,125.4636,81.7,78,33,19.04,scattered clouds
219,Cockburn Town,TC,21.4612,-71.1419,80.56,57,40,13.8,scattered clouds
220,Walvis Bay,NA,-22.9575,14.5053,69.1,67,20,15.86,few clouds
221,Krasnovishersk,RU,60.4078,57.082,25.09,92,100,11.61,light snow
222,Sitka,US,57.0531,-135.33,39.09,81,100,3.44,light rain
223,Hammerfest,NO,70.6634,23.6821,30.65,93,75,11.5,light snow
224,Narsaq,GL,60.9167,-46.05,21.42,90,100,4.36,overcast clouds
225,Port Macquarie,AU,-31.4333,152.9167,67.89,89,74,6.96,broken clouds
226,Luau,AO,-10.7073,22.2247,69.15,85,100,3.51,overcast clouds
227,Marsa Matruh,EG,31.3525,27.2453,59.56,57,53,23.58,light rain
228,Praia Da Vitoria,PT,38.7333,-27.0667,61.05,72,40,14.45,light rain
229,Chicama,PE,-7.8447,-79.1469,68.54,54,70,6.11,broken clouds
230,Geraldton,AU,-28.7667,114.6,73.81,83,0,13.8,clear sky
231,Tual,ID,-5.6667,132.75,82.49,80,96,12.53,overcast clouds
232,Rio Gallegos,AR,-51.6226,-69.2181,68.05,22,75,24.16,broken clouds
233,Tadine,NC,-21.55,167.8833,76.26,84,92,4.99,overcast clouds
234,Ustye,RU,59.6304,39.736,29.98,89,100,16.22,overcast clouds
235,Russell,US,32.3502,-85.1999,63.68,94,100,4.61,overcast clouds
236,Qaqortoq,GL,60.7167,-46.0333,18.1,87,100,3.76,overcast clouds
237,Longyearbyen,SJ,78.2186,15.6401,17.44,67,20,17.27,few clouds
238,Saint-Joseph,RE,-21.3667,55.6167,80.98,80,97,7.16,overcast clouds
239,Katobu,ID,-4.9408,122.5276,75.34,93,100,1.48,overcast clouds
240,Yuzhno-Kurilsk,RU,44.0306,145.8556,17.98,71,38,2.98,scattered clouds
241,Folkestone,GB,51.0833,1.1833,51.98,92,72,5.01,broken clouds
242,Toamasina,MG,-18.1667,49.3833,80.6,89,75,12.66,moderate rain
243,Auki,SB,-8.7676,160.7034,77.29,85,87,1.41,overcast clouds
244,Brazzaville,CG,-4.2658,15.2832,89.96,55,20,3.44,few clouds
245,Vestmannaeyjar,IS,63.4427,-20.2734,32.99,69,40,25.32,scattered clouds
246,Balkhash,KZ,46.844,74.9804,18.9,92,100,2.66,light snow
247,Atasu,KZ,48.6814,71.6433,3.2,99,73,2.77,broken clouds
248,Baykit,RU,61.67,96.37,-2.31,99,100,1.54,overcast clouds
249,Sao Paulo De Olivenca,BR,-3.3783,-68.8725,75.2,91,100,1.32,overcast clouds
250,Kuruman,ZA,-27.4524,23.4325,82.99,34,39,19.53,scattered clouds
251,Sangerhausen,DE,51.4667,11.3,41.04,84,100,18.81,overcast clouds
252,Nusaybin,TR,37.0778,41.2178,44.67,88,100,5.26,overcast clouds
253,Snyder,US,32.7179,-100.9176,20.08,100,100,10.36,overcast clouds
254,Tilichiki,RU,60.4667,166.1,4.44,96,100,8.19,overcast clouds
255,Pisco,PE,-13.7,-76.2167,75.25,73,0,8.05,clear sky
256,San Clemente,US,33.427,-117.612,55.62,57,53,5.01,broken clouds
257,Jardim,BR,-21.4803,-56.1381,75.29,92,100,3.44,light rain
258,Obidos,BR,-1.9175,-55.5181,77.22,91,100,3.58,overcast clouds
259,Yunyang,CN,33.4474,112.7142,48.58,29,57,6.4,broken clouds
260,Gizo,SB,-8.103,156.8419,81.99,75,100,5.3,overcast clouds
261,Kinsale,IE,51.7075,-8.5306,47.57,66,40,12.66,scattered clouds
262,North Battleford,CA,52.7834,-108.2847,6.4,85,100,3.44,overcast clouds
263,Anadyr,RU,64.75,177.4833,25.3,92,20,33.55,light snow
264,Beloha,MG,-25.1667,45.05,70.47,70,69,14.09,broken clouds
265,Prabumulih,ID,-3.45,104.25,73.51,98,95,3.0,overcast clouds
266,Saint-Pierre,RE,-21.3393,55.4781,82.08,74,20,12.66,few clouds
267,Hami,CN,42.8,93.45,28.44,26,100,4.63,overcast clouds
268,Isangel,VU,-19.55,169.2667,78.58,82,98,3.47,overcast clouds
269,San Quintin,MX,30.4833,-115.95,53.24,70,40,2.84,scattered clouds
270,Fukue,JP,32.6881,128.8419,54.14,62,8,14.43,clear sky
271,Flinders,AU,-34.5833,150.8552,67.24,86,58,9.62,broken clouds
272,Vestmanna,FO,62.1564,-7.1664,40.12,75,75,17.27,light intensity shower rain
273,Hotaka,JP,36.3396,137.8825,23.5,86,40,3.58,scattered clouds
274,Avarua,CK,-21.2078,-159.775,75.25,88,20,1.14,light rain
275,Ganzhou,CN,28.8184,115.4327,54.48,44,0,3.09,clear sky
276,Bathsheba,BB,13.2167,-59.5167,83.01,57,20,17.27,few clouds
277,Lompoc,US,34.6391,-120.4579,44.62,81,0,4.61,clear sky
278,Tessalit,ML,20.1986,1.0114,76.91,6,51,9.93,broken clouds
279,Cherskiy,RU,68.75,161.3,-4.13,100,99,4.27,overcast clouds
280,Araouane,ML,18.9048,-3.5265,76.69,6,31,11.61,scattered clouds
281,Grand Gaube,MU,-20.0064,57.6608,79.2,83,100,7.54,overcast clouds
282,Kovvur,IN,17.0167,81.7333,77.25,73,40,4.61,haze
283,Klaksvik,FO,62.2266,-6.589,41.92,86,95,31.47,light rain
284,Palmer,US,42.1584,-72.3287,37.51,54,75,16.11,broken clouds
285,Amuntai,ID,-2.4177,115.2494,74.7,98,100,1.59,overcast clouds
286,Sulangan,PH,11.1373,123.7228,78.85,85,65,15.73,broken clouds
287,Kargasok,RU,59.0556,80.8572,1.65,98,96,5.41,overcast clouds
288,Santa Marta,CO,11.2408,-74.199,84.25,70,20,8.05,few clouds
289,Saskylakh,RU,71.9167,114.0833,-36.65,98,91,4.52,overcast clouds
290,Carutapera,BR,-1.195,-46.02,85.37,63,63,6.55,moderate rain
291,Strasice,CZ,49.7355,13.7576,36.41,100,100,20.04,light snow
292,Farafangana,MG,-22.8167,47.8333,74.7,88,97,13.24,light rain
293,Chapada Dos Guimaraes,BR,-15.4606,-55.7497,80.26,50,40,7.18,scattered clouds
294,Nouadhibou,MR,20.931,-17.0347,73.38,43,78,12.66,broken clouds
295,Ucluelet,CA,48.9329,-125.5528,40.08,90,100,1.01,overcast clouds
296,Severo-Yeniseyskiy,RU,60.3725,93.0408,-0.94,98,100,3.96,overcast clouds
297,Mareeba,AU,-17.0,145.4333,75.92,97,100,2.04,overcast clouds
298,Saint-Augustin,CA,51.226,-58.6502,9.07,78,97,8.68,overcast clouds
299,Lata,PT,40.1629,-8.3327,55.08,42,0,4.0,clear sky
300,Goure,NE,13.9835,10.2704,92.05,8,4,11.01,clear sky
301,Narrabri,AU,-30.3167,149.7833,68.52,95,26,1.01,scattered clouds
302,Hambantota,LK,6.1241,81.1185,77.67,84,100,4.63,light rain
303,Proletarsk,RU,46.7031,41.7192,38.98,74,100,7.27,overcast clouds
304,Simao,CN,22.7886,100.9748,56.01,73,0,2.59,clear sky
305,Rumoi,JP,43.9344,141.6428,23.38,78,100,7.23,light snow
306,Pospelikha,RU,51.95,81.7667,7.16,93,100,3.42,overcast clouds
307,Tura,IN,25.5198,90.2201,65.82,48,76,1.05,broken clouds
308,Khani,GE,41.9563,42.9566,38.77,70,33,2.19,scattered clouds
309,Blagoveshchensk,RU,50.2667,127.5333,-13.59,84,0,2.24,clear sky
310,Autun,FR,46.95,4.3,38.08,86,94,2.62,overcast clouds
311,Grindavik,IS,63.8424,-22.4338,31.95,80,100,14.97,overcast clouds
312,Mar Del Plata,AR,-38.0023,-57.5575,81.82,80,40,12.66,scattered clouds
313,Barahona,DO,18.2085,-71.1008,85.82,54,20,9.22,few clouds
314,Shingu,JP,33.7333,135.9833,34.9,74,3,5.84,clear sky
315,Brae,GB,60.3964,-1.353,42.12,77,91,31.23,light rain
316,Hilpoltstein,DE,49.19,11.1886,38.39,82,100,14.03,overcast clouds
317,Hofn,IS,64.2539,-15.2082,33.55,68,100,25.28,overcast clouds
318,Coahuayana,MX,18.7333,-103.6833,80.04,44,1,2.57,clear sky
319,Patti,IN,31.2808,74.8572,51.87,63,1,7.4,clear sky
320,Tocopilla,CL,-22.092,-70.1979,74.21,74,100,3.71,overcast clouds
321,Constitucion,CL,-35.3333,-72.4167,70.27,55,75,11.95,broken clouds
322,Taoudenni,ML,22.6783,-3.9836,71.98,10,18,15.14,few clouds
323,Moerai,PF,-22.4333,-151.3333,79.0,74,100,10.36,light rain
324,Margate,GB,51.3813,1.3862,49.89,71,63,5.99,broken clouds
325,Yaan,NG,7.3833,8.5667,98.71,22,10,2.44,clear sky
326,Mount Isa,AU,-20.7333,139.5,74.97,100,95,3.44,overcast clouds
327,Hay River,CA,60.8156,-115.7999,-16.62,76,75,2.3,broken clouds
328,Eaton Socon,GB,52.2175,-0.2893,49.82,60,10,12.91,clear sky
329,Mitsamiouli,KM,-11.3847,43.2844,82.02,75,4,3.74,clear sky
330,Shenjiamen,CN,29.9576,122.298,53.67,88,0,12.68,clear sky
331,Santiago De Cao,PE,-7.9589,-79.2392,69.93,78,0,5.75,clear sky
332,Nurobod,UZ,40.9056,69.8023,40.46,72,86,8.37,overcast clouds
333,Ati,TD,13.2154,18.3353,96.04,8,3,9.42,clear sky
334,Victor Harbor,AU,-35.5667,138.6167,61.0,75,16,6.62,few clouds
335,Vila Velha,BR,-20.3297,-40.2925,85.95,71,40,17.27,scattered clouds
336,Juneau,US,58.3019,-134.4197,33.22,97,100,0.0,light snow
337,Qasigiannguit,GL,68.8193,-51.1922,10.65,97,100,10.78,light snow
338,Mwinilunga,ZM,-11.7358,24.4293,62.91,96,98,1.01,overcast clouds
339,Neuquen,AR,-38.9516,-68.0591,67.89,52,75,4.61,broken clouds
340,Talcahuano,CL,-36.7167,-73.1167,67.68,45,0,8.05,clear sky
341,Kruisfontein,ZA,-34.0033,24.7314,79.88,67,4,19.55,clear sky
342,San Angelo,US,31.4638,-100.437,23.29,92,100,8.01,overcast clouds
343,Ribeira Grande,PT,38.5167,-28.7,60.78,67,20,11.99,few clouds
344,Atar,MR,20.5169,-13.0499,81.34,12,14,5.82,few clouds
345,Pangody,RU,65.85,74.4859,-2.76,98,57,10.27,broken clouds
346,Maniitsoq,GL,65.4167,-52.9,7.02,75,100,9.98,overcast clouds
347,Nelson Bay,AU,-32.7167,152.15,72.0,90,56,8.01,broken clouds
348,Kariba,ZW,-16.5167,28.8,76.62,82,92,2.91,moderate rain
349,Caririacu,BR,-7.0422,-39.2836,84.29,55,75,9.22,broken clouds
350,Freeport,US,40.6576,-73.5832,38.41,82,100,8.05,overcast clouds
351,Samarai,PG,-10.6167,150.6667,80.8,82,63,6.38,broken clouds
352,Betong,TH,5.7743,101.0723,69.82,96,100,2.77,overcast clouds
353,Sorland,NO,67.667,12.6934,35.46,55,100,15.88,overcast clouds
354,Jaque,PA,7.5175,-78.1703,84.56,56,19,3.13,few clouds
355,Ust-Tsilma,RU,65.441,52.1498,25.81,87,100,11.05,overcast clouds
356,Nioro,GM,13.35,-15.75,96.67,7,7,7.49,clear sky
357,Bandarbeyla,SO,9.4942,50.8122,75.87,71,13,17.63,few clouds
358,Terrace,CA,54.5163,-128.6035,30.11,93,100,2.3,light snow
359,Ternate,ID,0.8,127.4,79.61,84,90,7.99,overcast clouds
360,Nautanwa,IN,27.4333,83.4167,64.0,61,0,11.32,clear sky
361,Codrington,AU,-38.2667,141.9667,55.92,77,36,6.55,scattered clouds
362,Baheri,IN,28.7833,79.5,58.77,72,0,10.45,clear sky
363,Kinshasa,CD,-4.3246,15.3215,89.98,55,20,3.44,few clouds
364,That Phanom,TH,16.9364,104.7104,65.34,39,6,2.75,clear sky
365,Basoko,CD,1.2391,23.616,87.37,45,58,0.76,broken clouds
366,Takoradi,GH,4.8845,-1.7554,83.82,67,85,10.36,overcast clouds
367,Bahia Blanca,AR,-38.7196,-62.2724,73.71,70,93,15.93,overcast clouds
368,Makakilo City,US,21.3469,-158.0858,69.98,84,0,3.44,clear sky
369,Crossville,US,35.949,-85.0269,38.1,97,100,5.75,mist
370,Suclayin,PH,15.7568,121.5503,71.22,84,98,5.01,overcast clouds
371,Hervey Bay,AU,-25.2986,152.8535,78.89,84,81,20.22,broken clouds
372,Namibe,AO,-15.1961,12.1522,73.18,77,100,3.85,overcast clouds
373,Kalevala,RU,65.2,31.1667,19.87,93,99,8.81,overcast clouds
374,Villarrica,PY,-25.75,-56.4333,90.66,43,28,6.89,scattered clouds
375,Santa Ines,BR,-3.6667,-45.38,86.95,68,80,1.12,broken clouds
376,Mumbwa,ZM,-14.9783,27.0619,70.95,91,88,2.89,light rain
377,Moctezuma,MX,29.8,-109.6667,52.47,50,0,1.99,clear sky
378,Kamiiso,JP,41.8167,140.65,22.8,92,97,2.01,overcast clouds
379,Gunzenhausen,DE,49.1,10.75,38.05,83,100,16.31,overcast clouds
380,Egvekinot,RU,66.3167,-179.1667,12.83,95,99,5.66,overcast clouds
381,Madison,US,34.7334,-86.5667,42.71,95,100,11.01,overcast clouds
382,Boyolangu,ID,-8.1181,111.8935,76.91,87,100,2.53,light rain
383,Ginir,ET,7.1333,40.7,66.06,43,23,7.52,few clouds
384,Kalengwa,ZM,-13.4659,25.0027,66.06,94,85,5.06,light rain
385,Pilar,BR,-9.5972,-35.9567,80.53,52,100,11.03,overcast clouds
386,Kualakapuas,ID,-3.0091,114.3876,75.2,97,100,2.66,overcast clouds
387,Ankazoabo,MG,-22.2833,44.5167,79.3,73,91,6.96,overcast clouds
388,Iberia,US,29.9502,-91.7507,67.96,94,100,12.66,mist
389,Mtwara,TZ,-10.2667,40.1833,85.33,74,20,11.5,few clouds
390,Olafsvik,IS,64.8945,-23.7142,31.14,72,100,29.12,overcast clouds
391,The Pas,CA,53.8251,-101.2541,-20.18,76,0,2.3,clear sky
392,Khasan,RU,42.4308,130.6434,18.79,93,100,4.83,overcast clouds
393,Lalsk,RU,60.7415,47.5862,26.29,90,100,12.46,overcast clouds
394,Moree,AU,-29.4667,149.85,75.11,75,17,3.89,few clouds
395,Nizhniy Kuranakh,RU,58.8353,125.4869,-11.56,96,100,6.58,overcast clouds
396,Belaya Gora,RU,68.5333,146.4167,-5.22,99,100,2.75,light snow
397,Dudinka,RU,69.4058,86.1778,3.16,93,100,15.5,overcast clouds
398,Buchanan,LR,5.8808,-10.0467,86.31,61,75,10.63,broken clouds
399,Bull Savanna,JM,17.8868,-77.5902,80.04,61,15,11.32,few clouds
400,Valparaiso,CL,-33.0393,-71.6273,65.84,88,100,11.5,overcast clouds
401,Marzuq,YE,14.4,46.4667,63.54,53,9,8.16,clear sky
402,Oda,JP,35.1833,132.5,38.61,77,14,12.41,few clouds
403,Along,IN,28.1667,94.7667,57.87,59,6,2.17,clear sky
404,Medea,DZ,36.2642,2.7539,46.2,52,0,4.9,clear sky
405,Hasaki,JP,35.7333,140.8333,25.2,51,64,2.3,broken clouds
406,Pitimbu,BR,-7.4706,-34.8086,86.59,61,95,12.64,overcast clouds
407,Allanridge,ZA,-27.7543,26.6438,79.61,59,100,7.76,overcast clouds
408,Shubarshi,KZ,48.5872,57.1869,11.82,78,5,8.57,clear sky
409,Pafos,CY,34.7667,32.4167,56.98,58,75,20.71,broken clouds
410,Bonavista,CA,48.6499,-53.1147,28.54,77,100,5.32,overcast clouds
411,Bambanglipuro,ID,-7.95,110.2833,77.29,87,100,4.45,moderate rain
412,Tornio,FI,65.8481,24.1466,17.62,93,21,4.97,few clouds
413,Karpogory,RU,64.0019,44.4451,29.07,86,100,14.54,overcast clouds
414,Fare,PF,-16.7,-151.0167,80.42,77,40,14.99,light rain
415,Consuegra,ES,39.4625,-3.608,48.69,34,0,5.61,clear sky
416,Louis Trichardt,ZA,-23.0439,29.9032,80.33,48,30,7.61,scattered clouds
417,Penzance,GB,50.1186,-5.5371,49.77,75,99,16.35,overcast clouds
418,Bhan,PK,26.5583,67.7214,62.8,29,0,4.76,clear sky
419,Kayseri,TR,38.737,35.4968,35.62,87,75,10.36,broken clouds
420,Pandan,PH,14.0453,124.1694,76.87,88,68,14.76,broken clouds
421,Dumai,ID,1.6833,101.45,74.64,89,100,2.37,overcast clouds
422,Kirakira,SB,-10.4544,161.9205,78.13,83,100,2.91,overcast clouds
423,Ballina,AU,-28.8667,153.5667,72.79,99,61,4.99,broken clouds
424,Turkistan,KZ,43.0,68.0,32.43,94,30,9.69,scattered clouds
425,Bulnes,CL,-36.7423,-72.2985,77.76,20,55,8.23,broken clouds
426,Fengcheng,CN,40.4536,124.0717,21.96,78,2,3.74,clear sky
427,Marawi,PH,7.9986,124.2928,67.32,95,25,1.99,scattered clouds
428,Kattivakkam,IN,13.2167,80.3167,82.49,78,100,12.37,overcast clouds
429,Pudozh,RU,61.8099,36.5345,26.91,96,100,12.08,light snow
430,Port Hedland,AU,-20.3167,118.5667,84.25,84,76,6.91,broken clouds
431,Vega De Alatorre,MX,20.0333,-96.6333,77.38,63,0,1.86,clear sky
432,Sol-Iletsk,RU,51.1631,54.9918,1.26,93,14,5.28,few clouds
433,Hamilton,US,39.1834,-84.5333,26.24,78,100,6.91,overcast clouds
434,Poya,NC,-21.35,165.15,74.07,87,40,3.87,scattered clouds
435,Bukama,CD,-9.2,25.85,75.07,90,96,3.0,light rain
436,Ghanzi,BW,-21.5667,21.7833,82.22,45,76,9.89,broken clouds
437,Banjar,ID,-8.19,114.9675,77.72,94,100,0.76,overcast clouds
438,Rogovatoye,RU,51.23,38.3818,23.34,82,11,6.06,few clouds
439,Leeuwarden,NL,53.2014,5.8086,46.99,81,66,23.02,broken clouds
440,Ola,RU,59.5833,151.2833,3.49,82,100,7.4,overcast clouds
441,Krasnoselkup,RU,65.7,82.4667,-7.62,100,83,8.34,broken clouds
442,Innisfail,AU,-17.5333,146.0333,76.73,93,100,1.92,overcast clouds
443,Vao,NC,-22.6667,167.4833,76.42,79,18,8.79,few clouds
444,Carndonagh,IE,55.25,-7.2667,45.25,75,98,23.67,overcast clouds
445,Airai,TL,-8.9266,125.4092,61.29,95,100,1.32,overcast clouds
446,Sobolevo,RU,54.4299,31.8996,28.74,96,86,7.29,overcast clouds
447,Kemin,KG,42.7846,75.6892,25.92,77,94,2.71,overcast clouds
448,Comacchio,IT,44.6975,12.1858,50.09,68,19,3.4,few clouds
449,Asfi,MA,32.2994,-9.2372,62.35,47,98,10.94,overcast clouds
450,Kununurra,AU,-15.7667,128.7333,78.78,94,75,6.91,moderate rain
451,Hirado,JP,33.3597,129.5531,42.39,63,61,15.7,broken clouds
452,Belmonte,BR,-15.8631,-38.8828,83.61,58,27,6.64,scattered clouds
453,Saint-Denis,FR,48.9167,2.3333,48.36,78,100,11.5,overcast clouds
454,Gumdag,TM,39.2061,54.5906,47.21,54,100,21.99,overcast clouds
455,Tolaga Bay,NZ,-38.3667,178.3,65.19,88,100,14.29,overcast clouds
456,Kysyl-Syr,RU,63.8986,122.7617,-36.27,99,98,6.69,overcast clouds
457,Hastings,GB,50.8552,0.5729,50.9,50,57,9.86,broken clouds
458,Bainbridge,US,47.6262,-122.5212,35.89,84,100,5.99,mist
459,Murud,IN,18.3258,72.965,73.96,73,11,5.99,few clouds
460,Zilair,RU,52.2332,57.4392,4.23,94,100,1.86,overcast clouds
461,Griffith,US,41.5284,-87.4237,16.11,55,0,6.91,clear sky
462,Kieta,PG,-6.2167,155.6333,78.82,84,96,3.76,overcast clouds
463,Balabac,PH,7.9868,117.0645,77.41,90,100,17.85,overcast clouds
464,Ust-Koksa,RU,50.2696,85.6108,3.79,78,57,1.14,broken clouds
465,Cuamba,MZ,-14.8031,36.5372,71.65,90,14,2.89,few clouds
466,Opuwo,NA,-18.0607,13.84,78.04,44,100,5.68,overcast clouds
467,Dukat,RU,62.55,155.55,-13.7,95,100,2.8,overcast clouds
468,Alnashi,RU,56.1874,52.4792,26.62,95,99,14.29,light snow
469,Tiznit,MA,29.5833,-9.5,59.86,19,51,26.75,broken clouds
470,Kushiro,JP,42.975,144.3747,16.99,79,12,2.04,few clouds
471,Lithgow,AU,-33.4833,150.15,56.77,97,75,1.43,broken clouds
472,Narasannapeta,IN,18.4167,84.05,74.71,57,98,4.38,overcast clouds
473,Hohhot,CN,40.8106,111.6522,17.89,49,0,8.95,clear sky
474,Ishigaki,JP,24.3448,124.1572,66.33,68,75,6.91,broken clouds
475,Bacolod,PH,10.6667,122.95,76.32,89,65,11.14,broken clouds
476,Akdagmadeni,TR,39.6603,35.8836,30.24,93,72,4.16,light snow
477,Chisec,GT,15.8167,-90.2833,79.03,66,49,3.49,scattered clouds
478,Belyy Yar,RU,53.6039,91.3903,3.09,81,98,0.0,overcast clouds
479,Muros,ES,42.7762,-9.0603,59.68,63,23,4.94,few clouds
480,Bontang,ID,0.1333,117.5,77.02,89,98,3.98,overcast clouds
481,Lao Cai,VN,22.4833,103.95,56.91,74,0,1.1,clear sky
482,Ayagoz,KZ,47.9714,80.4392,13.42,84,100,3.0,overcast clouds
483,Karlshamn,SE,56.1706,14.8619,37.89,90,100,14.2,overcast clouds
484,Papara,BR,-3.9839,-38.7273,84.6,54,100,10.27,overcast clouds
485,Ekhabi,RU,53.5102,142.9671,-16.98,95,35,7.67,scattered clouds
486,Smithers,CA,54.7804,-127.1743,16.12,86,100,3.44,overcast clouds
487,San Juan,AR,-31.5375,-68.5364,97.38,22,34,14.65,scattered clouds
488,Mikkeli,FI,61.6886,27.2723,26.71,86,100,8.05,overcast clouds
489,Kasempa,ZM,-13.4584,25.8338,64.8,97,100,5.57,overcast clouds
490,Carauari,BR,-4.8828,-66.8958,74.07,93,100,2.37,light rain
491,Oussouye,SN,12.485,-16.5469,96.98,16,4,9.22,clear sky
492,Inhambane,MZ,-23.865,35.3833,78.21,68,71,12.33,broken clouds
493,Razdolinsk,RU,58.4211,94.6658,5.7,98,100,1.36,overcast clouds
494,Kapit,MY,2.0167,112.9333,73.63,99,100,1.45,overcast clouds
495,Bedele,ET,8.456,36.353,66.74,31,23,2.19,few clouds
496,Wamba,NG,8.9333,8.6,94.5,18,44,6.42,scattered clouds
497,Rabo De Peixe,PT,37.8,-25.5833,58.51,67,40,16.11,scattered clouds
498,Caravelas,BR,-17.7125,-39.2481,85.1,56,48,9.91,scattered clouds
499,Upata,VE,8.0086,-62.3989,80.19,40,38,2.95,scattered clouds
500,Mozarlandia,BR,-14.7447,-50.5706,86.85,59,50,4.5,scattered clouds
501,Zambezi,ZM,-13.5432,23.1047,64.87,97,100,2.68,light rain
502,Taitung,TW,22.7583,121.1444,62.62,64,42,6.44,scattered clouds
503,Porto Santo,PT,33.072,-16.3415,59.38,58,40,14.97,scattered clouds
504,Maraba,BR,-5.3686,-49.1178,89.78,62,75,3.44,broken clouds
505,Arlit,NE,18.7369,7.3853,75.99,3,100,4.14,overcast clouds
506,Socastee,US,33.6835,-78.9984,63.32,87,100,5.75,overcast clouds
507,San Cristobal,VE,7.7669,-72.225,71.78,44,67,2.8,broken clouds
508,Awbari,LY,26.5921,12.7805,54.45,20,0,8.9,clear sky
509,Kapoeta,SS,4.7717,33.5903,90.55,26,88,8.97,overcast clouds
510,Flin Flon,CA,54.7682,-101.865,-27.56,68,40,4.61,scattered clouds
511,Sidhpura,IN,27.6333,78.8833,56.41,81,0,9.06,clear sky
512,Barcelos,PT,41.5388,-8.6151,55.92,66,9,4.09,clear sky
513,Alice Springs,AU,-23.7,133.8833,72.95,100,75,0.0,broken clouds
514,Berlevag,NO,70.8578,29.0864,33.75,93,100,14.97,light snow
515,Slave Lake,CA,55.2834,-114.769,8.58,85,100,6.91,overcast clouds
516,Nome,US,64.5011,-165.4064,19.17,100,100,3.44,fog
517,Ambon,ID,-3.6954,128.1814,77.14,94,20,3.44,few clouds
518,Mayo,US,38.8876,-76.5119,41.5,89,100,6.91,moderate rain
519,Tiarei,PF,-17.5333,-149.3333,75.22,77,17,15.77,light rain
520,Pitrufquen,CL,-38.9833,-72.65,71.62,53,0,9.22,clear sky
521,Umm Lajj,SA,25.0213,37.2685,68.63,48,6,16.42,clear sky
522,San Patricio,US,28.017,-97.5169,40.84,82,100,11.45,overcast clouds
523,Claresholm,CA,50.0333,-113.5852,6.71,66,71,2.3,broken clouds
524,Tagusao,PH,9.1924,117.8141,77.52,87,98,10.47,overcast clouds
525,Chokwe,MZ,-24.5333,32.9833,81.55,61,97,14.43,overcast clouds
526,Fairbanks,US,64.8378,-147.7164,19.36,83,100,5.75,light snow
527,Maragogi,BR,-9.0122,-35.2225,83.86,65,85,11.16,overcast clouds
528,Samarinda,ID,-0.5,117.15,73.76,99,100,1.03,overcast clouds
529,Kendari,ID,-3.945,122.4989,75.47,93,100,0.89,overcast clouds
530,Fuxin,CN,42.0156,121.6589,24.39,49,94,17.63,overcast clouds
531,Jalalpur Jattan,PK,32.6374,74.2183,55.27,67,20,9.22,smoke
532,Alyangula,AU,-13.8483,136.4192,81.72,84,96,10.89,overcast clouds
533,Mocuba,MZ,-16.8392,36.9856,75.81,89,3,5.64,clear sky
534,Purpe,RU,64.4803,76.6897,-3.37,99,31,10.58,scattered clouds
535,Te Anau,NZ,-45.4167,167.7167,59.65,94,100,0.87,overcast clouds
536,Tarbagatay,RU,51.4803,107.3602,-2.67,98,7,3.49,clear sky
537,Christiana,ZA,-27.914,25.1611,78.67,40,80,12.82,broken clouds
538,Depok,ID,-6.4,106.8186,82.63,82,100,4.34,overcast clouds
539,Mbandaka,CD,0.0487,18.2603,82.33,57,90,1.97,overcast clouds
540,Shimoda,JP,34.6667,138.95,39.94,74,12,5.19,few clouds
541,Kalmar,SE,56.6616,16.3616,37.15,93,100,8.05,overcast clouds
542,Launceston,AU,-41.45,147.1667,57.79,82,12,9.22,few clouds
543,Palmares Do Sul,BR,-30.2578,-50.5097,86.77,45,11,9.31,few clouds
544,Koutiala,ML,12.3917,-5.4642,91.6,7,89,8.75,overcast clouds
545,Saint-Leu,RE,-21.15,55.2833,81.46,80,95,11.05,overcast clouds
546,Gambo,CF,4.6482,22.2633,85.08,26,8,1.92,clear sky
547,Vila Franca Do Campo,PT,37.7167,-25.4333,59.41,69,81,11.81,broken clouds
548,Takhli,TH,15.2634,100.3438,71.74,32,26,1.54,scattered clouds
549,Depew,US,42.904,-78.6923,23.25,55,40,8.05,scattered clouds
550,Ambilobe,MG,-13.2,49.05,75.92,92,42,1.36,moderate rain
551,Chapais,CA,49.7834,-74.8492,-7.82,83,76,10.18,broken clouds
552,Hualmay,PE,-11.0964,-77.6139,76.77,69,100,8.57,overcast clouds
553,Merauke,ID,-8.4667,140.3333,80.58,83,97,7.18,overcast clouds
554,Champerico,GT,14.3,-91.9167,88.34,52,0,5.26,clear sky
555,Primorsko-Akhtarsk,RU,46.0497,38.1747,36.59,82,100,2.75,overcast clouds
556,Correntina,BR,-13.3433,-44.6367,86.47,43,1,5.23,clear sky
557,La Romana,DO,18.4273,-68.9728,82.76,54,40,11.5,scattered clouds
558,Daru,PG,-9.0763,143.2092,77.85,91,94,5.93,overcast clouds
559,Montclair,US,40.8259,-74.209,38.39,68,100,9.22,overcast clouds
560,Yinchuan,CN,38.4681,106.2731,23.81,29,72,8.48,broken clouds
561,Verkhoyansk,RU,67.5447,133.385,-19.44,99,100,2.84,light snow
562,Zhanaozen,KZ,43.3,52.8,32.36,59,93,10.94,overcast clouds
563,Havre-Saint-Pierre,CA,50.2334,-63.5986,5.0,47,40,6.91,scattered clouds
564,Pasinler,TR,39.9803,41.6764,27.59,96,100,2.66,snow
565,Ulladulla,AU,-35.35,150.4667,65.43,89,91,6.2,overcast clouds
566,Karlstad,SE,59.3793,13.5036,32.56,69,100,4.61,snow
567,Sunndalsora,NO,62.6754,8.5515,28.74,85,100,6.85,light snow
568,Amapa,BR,1.0,-52.0,86.43,57,65,3.89,broken clouds
569,Inverell,AU,-29.7833,151.1167,68.16,97,5,2.66,clear sky
570,Cap Malheureux,MU,-19.9842,57.6142,78.48,84,100,7.65,light rain
571,Jaru,BR,-10.4389,-62.4664,72.88,97,98,8.01,overcast clouds
572,Sinnamary,GF,5.3833,-52.95,79.32,77,26,6.49,scattered clouds
573,Cervo,ES,43.6702,-7.4101,53.96,71,12,7.09,few clouds
574,Aksu,CN,41.1231,80.2644,13.14,88,15,4.74,few clouds
575,Kotelnikovo,RU,47.6317,43.1461,32.34,88,77,8.34,broken clouds
576,Vidim,RU,56.4088,103.1106,-11.56,100,100,3.58,overcast clouds
577,Tank,PK,32.2217,70.3793,57.45,40,56,3.36,broken clouds
578,Panguna,PG,-6.3164,155.4848,67.89,94,92,1.07,overcast clouds
579,Talnakh,RU,69.4865,88.3972,3.76,95,100,10.45,light snow
580,Blackfalds,CA,52.3834,-113.7853,17.87,86,100,2.82,overcast clouds
581,Sinop,TR,41.7711,34.8709,34.23,97,100,3.31,snow
582,Lokosovo,RU,61.1333,74.8167,4.23,98,68,6.87,broken clouds
583,Lodingen,NO,68.414,15.9951,30.38,89,93,0.74,light snow
584,Kiruna,SE,67.8557,20.2251,20.32,73,0,5.75,clear sky
585,Verkhoshizhemye,RU,58.011,49.1038,26.19,91,100,13.58,overcast clouds
586,Perth,AU,-31.9333,115.8333,70.66,65,0,21.85,clear sky
587,Todos Santos,MX,23.45,-110.2167,65.05,44,100,6.2,overcast clouds
588,Rocha,UY,-34.4833,-54.3333,83.35,54,35,14.41,scattered clouds
589,Sinjai,ID,-5.1241,120.253,76.08,90,99,4.05,overcast clouds
590,Puerto Rondon,CO,6.2805,-71.1,91.87,28,20,11.25,few clouds
591,Del Rio,US,29.3627,-100.8968,37.51,77,100,13.8,overcast clouds
592,Thio,NC,-21.6167,166.2167,69.76,86,33,5.79,scattered clouds
593,Atherton,GB,53.5237,-2.4935,47.75,74,32,8.01,scattered clouds
594,Ust-Omchug,RU,61.15,149.6333,-8.01,99,100,3.02,overcast clouds
595,Clarence Town,AU,-32.5833,151.7833,71.85,97,16,3.58,few clouds
596,Trincomalee,LK,8.5711,81.2335,76.86,92,100,15.73,light rain
597,Tigzirt,DZ,36.8886,4.1198,51.28,71,1,6.17,clear sky
598,Inirida,CO,3.8653,-67.9239,90.63,41,85,2.59,overcast clouds
599,Wau,SS,7.7029,27.9953,89.46,12,21,4.14,few clouds
600,Sahuaripa,MX,29.05,-109.2333,60.66,36,0,1.5,clear sky
601,Richards Bay,ZA,-28.783,32.0377,75.87,86,61,13.13,light rain
602,Borovskoy,KZ,53.8,64.15,6.71,86,42,9.19,scattered clouds
603,Praya,CV,14.9215,-23.5087,77.54,57,20,20.71,few clouds
604,College,US,64.8569,-147.8028,19.35,82,100,5.75,light snow
605,Artigas,UY,-30.4,-56.4667,98.13,14,0,8.01,clear sky
606,Vostok,RU,46.4856,135.8833,-6.7,96,94,3.89,overcast clouds
607,Ovalle,CL,-30.5983,-71.2003,82.92,42,64,8.28,broken clouds
608,San Jose,US,37.3394,-121.895,49.42,46,0,3.44,clear sky
609,Huarmey,PE,-10.0681,-78.1522,75.79,72,99,7.09,overcast clouds
610,Payo,ID,-3.7508,103.6372,72.81,98,99,2.71,overcast clouds
611,Padre Bernardo,BR,-15.35,-48.5,84.24,53,25,4.38,scattered clouds
612,Raudeberg,NO,61.9875,5.1352,36.95,28,100,20.36,snow
613,Brownwood,US,31.7093,-98.9912,24.8,88,75,11.5,snow
614,Badulla,LK,6.9895,81.0557,68.11,94,100,4.14,overcast clouds
615,Tacuarembo,UY,-31.7333,-55.9833,97.74,21,0,7.09,clear sky
616,Verkhnyaya Inta,RU,65.9811,60.3094,17.78,88,100,6.46,overcast clouds
617,Adrar,MR,20.5022,-10.0711,75.56,8,16,6.6,few clouds
618,Ushtobe,KZ,45.2514,77.9838,15.03,88,99,2.24,overcast clouds
619,Graham,US,47.0529,-122.2943,32.13,85,0,6.91,clear sky
620,Darhan,MN,49.4867,105.9228,-9.02,93,6,6.69,clear sky
621,Bolshaya Rechka,RU,51.9503,104.7355,-8.75,98,13,2.39,few clouds
622,Gamba,GA,-2.65,10.0,80.33,77,49,9.84,scattered clouds
623,Bilma,NE,18.6853,12.9164,72.59,14,100,10.94,overcast clouds
624,Chimore,BO,-16.9833,-65.1333,77.86,88,100,1.74,moderate rain
625,Faya,SA,18.3851,42.4509,60.91,63,51,4.18,broken clouds
626,Cururupu,BR,-1.8283,-44.8683,86.13,61,89,6.42,overcast clouds
627,Tecoanapa,MX,16.5167,-98.75,83.61,50,0,5.14,clear sky
628,Desaguadero,PE,-16.5656,-69.0417,55.99,54,99,8.72,overcast clouds
629,Banon,ES,40.8382,-1.1909,47.46,66,0,6.91,clear sky
630,Tokoroa,NZ,-38.2333,175.8667,60.08,98,100,9.17,light rain
631,Pouebo,NC,-20.4,164.5667,75.51,78,29,2.37,scattered clouds
632,Beidao,CN,34.5686,105.8933,37.81,30,54,4.74,broken clouds
633,Eyl,SO,7.9803,49.8164,74.79,69,0,16.78,clear sky
634,Bauchi,NG,10.5,10.0,88.48,11,33,5.21,scattered clouds
635,Topolobampo,MX,25.6,-109.05,60.71,77,100,3.44,overcast clouds
636,Guymon,US,36.6828,-101.4816,12.2,79,100,4.61,overcast clouds
637,Grand-Lahou,CI,5.1367,-5.0242,83.21,71,94,9.22,overcast clouds
638,Alofi,NU,-19.0595,-169.9187,75.09,100,99,8.05,overcast clouds
639,Ilo,PE,-17.6394,-71.3375,77.86,65,0,12.66,clear sky
640,Diamantino,BR,-14.4086,-56.4461,88.39,54,39,4.88,scattered clouds
641,Lalmohan,BD,22.3384,90.7419,71.78,66,82,6.78,broken clouds
642,Aketi,CD,2.7388,23.7833,84.27,36,50,2.62,scattered clouds
643,Nokaneng,BW,-19.6667,22.2667,70.99,84,97,4.92,light rain
644,Kefamenanu,ID,-9.4467,124.4781,72.93,96,100,2.37,overcast clouds
645,Aquidauana,BR,-20.4711,-55.7872,84.76,66,100,7.99,light rain
646,Simpang,ID,-1.2667,104.0833,74.53,96,100,2.15,overcast clouds
647,Dhidhdhoo,MV,6.8833,73.1,80.65,76,83,12.97,broken clouds
648,Lieto,FI,60.5103,22.4618,33.22,84,75,8.05,broken clouds
649,Cristalina,BR,-16.7686,-47.6136,78.04,53,62,6.76,broken clouds
650,Karatsu,JP,33.4425,129.9697,42.91,25,53,1.99,broken clouds
651,Sindor,RU,62.8629,51.8905,24.71,92,100,11.54,overcast clouds
652,Majholi,IN,23.5,79.9167,62.19,59,2,7.49,clear sky
653,Roscommon,IE,53.6333,-8.1833,43.12,74,33,15.64,scattered clouds
654,Palauig,PH,15.435,119.9045,76.32,72,46,4.32,scattered clouds
655,Tateyama,JP,34.9833,139.8667,42.57,71,65,8.68,broken clouds
656,Leningradskiy,RU,69.3833,178.4167,0.05,95,80,4.99,broken clouds
657,Guerrero Negro,MX,27.9769,-114.0611,59.31,60,9,8.39,clear sky
658,Ketchikan,US,55.3422,-131.6461,39.18,93,100,12.66,light rain
659,Tomaszow Lubelski,PL,50.4477,23.4162,30.11,90,81,11.39,broken clouds
660,Sena Madureira,BR,-9.0656,-68.6569,88.0,58,93,1.25,overcast clouds
661,Doha,QA,25.2867,51.5333,67.98,83,8,14.97,clear sky
662,Nehe,CN,48.4833,124.8333,4.95,96,100,7.07,light snow
663,Rocky Mountain House,CA,52.3668,-114.9188,19.51,93,100,3.44,light snow
664,Elmira,US,42.0898,-76.8077,26.37,68,100,5.75,overcast clouds
665,Maarianhamina,AX,60.0973,19.9348,33.66,69,0,5.75,clear sky
666,Kemalpasa,TR,38.4262,27.4173,43.38,66,99,7.43,overcast clouds
667,Nanortalik,GL,60.1432,-45.2371,21.72,79,100,2.37,overcast clouds
668,Terrasini,IT,38.146,13.0844,54.97,70,40,10.36,scattered clouds
669,Mantua,IT,45.1667,10.7833,49.35,83,25,4.88,scattered clouds
670,Hopkinsville,US,36.8656,-87.4886,28.35,98,100,8.79,overcast clouds
671,Orlik,RU,52.5178,99.825,-16.15,94,84,2.39,broken clouds
672,Leshukonskoye,RU,64.8989,45.7622,27.93,93,100,13.0,light snow
673,Marsh Harbour,BS,26.5412,-77.0636,75.92,70,13,6.91,few clouds
674,Tailai,CN,46.3833,123.4,12.15,96,100,5.01,light snow
675,Xuddur,SO,4.1213,43.8894,80.73,27,4,10.69,clear sky
676,Hauterive,FR,46.0901,3.4459,47.16,88,97,3.87,overcast clouds
677,Bucerias,MX,20.75,-105.3333,69.78,73,20,5.75,few clouds
678,Copala,MX,16.65,-98.9833,84.06,47,0,4.92,clear sky
679,Walla Walla,US,46.0646,-118.343,32.5,68,100,4.61,overcast clouds
680,Ayan,RU,56.45,138.1667,-9.02,75,97,11.27,overcast clouds
681,Inuvik,CA,68.3499,-133.7218,-19.34,76,0,3.44,clear sky
682,Yantal,RU,56.8471,105.2542,-9.4,100,97,4.18,overcast clouds
683,Jalu,LY,29.0331,21.5482,59.86,42,88,8.28,overcast clouds
684,Wembley,AU,-31.9333,115.8,70.68,65,0,21.85,clear sky
685,Naryan-Mar,RU,67.6713,53.087,20.7,94,100,17.52,light snow
686,Finschhafen,PG,-6.6024,147.8681,81.05,82,100,6.02,overcast clouds
687,Amvrosiyivka,UA,47.7935,38.4777,33.64,99,100,1.45,overcast clouds
688,Arman,RU,59.7,150.1667,5.97,93,100,6.8,overcast clouds
689,Avera,US,33.194,-82.5271,59.56,83,100,6.2,overcast clouds
690,Susanville,US,40.4163,-120.653,20.12,67,0,3.44,clear sky
691,Fort Nelson,CA,58.8053,-122.7002,4.95,89,100,5.75,light snow
692,Anchorage,US,61.2181,-149.9003,29.97,93,100,3.44,fog
693,Rio Grande,BR,-32.035,-52.0986,89.71,59,5,11.14,clear sky
694,Paamiut,GL,61.994,-49.6678,12.61,69,100,9.78,overcast clouds
695,Datia,IN,25.6667,78.4667,58.35,68,0,6.93,clear sky
696,Baturaja,ID,-4.1333,104.1667,73.47,97,99,4.0,overcast clouds
697,Kachiry,KZ,53.0675,76.1036,-8.03,95,82,1.32,broken clouds
